[
{"@context":"http:\/\/schema.org","@type":"LocalBusiness","address":"Second Avenue 25, Boston, Massachusets","description":"A superb collection of fine gifts and clothing to accent your stay in Mexico Beach.","name":"Beachwalk Beachwear & Giftware","telephone":"850-648-4200","url":"http:\/\/www.dishdash.com","openingHours":["Mo-Sa 11:00-14:30","Mo-Th 17:00-21:30","Fr-Sa 17:00-22:00"],"id":0},
{"servesCuisine":["Continental"],"acceptsReservations":true,"@context":"http:\/\/schema.org","@type":"FoodEstablishment","address":"First Avenue 1, Springfield, Ohio","description":"A good place to have a beer.","name":"Awesome Food","telephone":"(408) 714-1489","url":"http:\/\/www.dishdash.com","openingHours":["Mo-Sa 11:00-14:30","Mo-Th 17:00-21:30","Fr-Sa 17:00-22:00"],"id":1},
{"servesCuisine":["Oriental"],"acceptsReservations":true,"@context":"http:\/\/schema.org","@type":"FoodEstablishment","address":"Last Avenue 5, Springfield, New York","description":"A good turkish place.","name":"Bad Food","telephone":"(408) 714-1489","url":"http:\/\/www.dishdash.com","openingHours":["Mo-Sa 11:00-14:30","Mo-Th 17:00-21:30"],"id":2},
{"@context":"http:\/\/schema.org","@type":"LocalBusiness","address":"Principal Avenue 25, Toronto, Massachusets","description":"A superb collection of fine gifts for women.","name":"La tienduca de Ana","telephone":"850-648-4200","url":"http:\/\/www.tienduca-ana.com","openingHours":["Mo-Sa 11:00-14:30","Mo-Sa 17:00-21:30"],"id":3},
{"servesCuisine":["Japanese"],"acceptsReservations":true,"@context":"http:\/\/schema.org","@type":"FoodEstablishment","address":"Blue Avenue 1, Springfield, Ohio","description":"The best sushi in town.","name":"Kaisen Sushi","telephone":"(408) 714-1489","url":"http:\/\/www.kaisen.com","openingHours":["Mo-Sa 11:00-14:30","Mo-Th 17:00-21:30","Fr-Sa 17:00-22:00"],"id":4},
{"@context":"http:\/\/schema.org","@type":"LocalBusiness","address":"cvb","description":"cbv","name":"cvb","telephone":"cvb","url":"cvb","openingHours":"cb","id":5}
]